{"people":[{"person_id":"P-0001","primary_name":"Bonum Reed","sex":"male","branch":"Paternal Reed","birth_date":"1816-06-03","death_date":"1893-12-13","notes":"Farmer; moved from Ohio to Iowa by 1870; buried at Monteith Cemetery.","source_summary":"Report; RootsWeb; Find a Grave FSID:27XF-VBH","birth_place_id":"PL-0070","death_place_id":"PL-0032","birth_year":1816,"death_year":1893,"birth_place_name":"Wills Creek, Coshocton County, Ohio, USA","birth_lat":40.18007,"birth_long":-81.85069,"death_place_name":"Monteith, Guthrie County, Iowa, USA","death_lat":41.6313758,"death_long":-94.428579,"era":"Civil War & Reconstruction","has_birth_point":true,"has_death_point":true},{"person_id":"P-0002","primary_name":"Rebecca (Talley) Reed","sex":"female","branch":"Paternal Reed","birth_date":"circa 1822","death_date":"1911","notes":"Daughter of John Foulk Talley and Hannah Poulson; migrated to Iowa; buried in Monteith.","source_summary":"Report; Find a Grave","birth_place_id":"PL-0074","death_place_id":"PL-0002","birth_year":1822,"death_year":1911,"birth_place_name":"Talley Town, Morgan County, Ohio, USA","birth_lat":39.652191,"birth_long":-81.8224359999999,"death_place_name":"Monteith, Guthrie County, Iowa","death_lat":41.6313758,"death_long":-94.428579,"era":"Civil War & Reconstruction","has_birth_point":true,"has_death_point":true},{"person_id":"P-0004","primary_name":"Elizabeth (Willey) Reed","sex":"female","branch":"Paternal Reed by marriage","birth_date":"circa 1846","death_date":"1880-12-20","notes":"Married John T. Reed in Noble County, Ohio; moved to Iowa by 1870.","source_summary":"Report","birth_place_id":"PL-0054","death_place_id":"PL-0002","birth_year":1846,"death_year":1880,"death_place_name":"Monteith, Guthrie County, Iowa","death_lat":41.6313758,"death_long":-94.428579,"era":"Gilded Age","has_birth_point":false,"has_death_point":true},{"person_id":"P-0009","primary_name":"David Lambert","sex":"male","branch":"Maternal Lambert","birth_date":"1789","death_date":"1868","notes":"Son of Sherebiah Lambert II and an unknown first wife; pioneer to Indiana.","source_summary":"Report","birth_place_id":"PL-0076","death_place_id":"PL-0077","birth_year":1789,"death_year":1868,"era":"Early Republic","has_birth_point":false,"has_death_point":false},{"person_id":"P-0010","primary_name":"Parmelia (Barnard) Lambert","sex":"female","branch":"Maternal Lambert","birth_date":"circa 1798","death_date":"1865","notes":"Wife of David Lambert.","source_summary":"Report","birth_place_id":"PL-0076","death_place_id":"PL-0077","birth_year":1798,"death_year":1865,"era":"Early Republic","has_birth_point":false,"has_death_point":false},{"person_id":"P-0012","primary_name":"Helen Amelia (Boles) Lambert","sex":"female","branch":"Maternal Lambert","birth_date":"circa 1849","death_date":"1938","notes":"Daughter of Silas P. Boles and Martha L. Spear; second wife of Abiram S. Lambert.","source_summary":"Report","birth_place_id":"PL-0066","death_place_id":"PL-0015","birth_year":1849,"death_year":1938,"birth_place_name":"Rollin, Lenawee County, Michigan, USA","birth_lat":41.911234,"birth_long":-84.323903,"death_place_name":"Guthrie County, Iowa, USA","death_lat":41.687,"death_long":-94.498,"era":"Gilded Age","has_birth_point":true,"has_death_point":true},{"person_id":"P-0013","primary_name":"Silas P. Boles","sex":"male","branch":"Maternal Lambert","birth_date":"1818","death_date":"1900","notes":"Husband of Martha L. Spear.","source_summary":"Report","birth_place_id":"PL-0076","death_place_id":"PL-0077","birth_year":1818,"death_year":1900,"era":"Civil War & Reconstruction","has_birth_point":false,"has_death_point":false},{"person_id":"P-0016","primary_name":"Lydia A. (Hopkins) Lambert","sex":"female","branch":"Maternal Lambert","birth_date":"1738","death_date":"1806","notes":"Wife of Sherebiah Sr.; maiden name uncertain.","source_summary":"Report","birth_place_id":"PL-0076","death_place_id":"PL-0077","birth_year":1738,"death_year":1806,"era":"Colonial Era","has_birth_point":false,"has_death_point":false},{"person_id":"P-0018","primary_name":"Permelia M. Oak","sex":"female","branch":"Maternal Lambert","birth_date":"1788","death_date":"1845","notes":"Second wife of Sherebiah Jr.","source_summary":"Report","birth_place_id":"PL-0076","death_place_id":"PL-0077","birth_year":1788,"death_year":1845,"era":"Early Republic","has_birth_point":false,"has_death_point":false},{"person_id":"P-0019","primary_name":"Anton Zika","sex":"male","branch":"Zika","birth_date":"1859-06-13","death_date":"1948","notes":"Czech immigrant; husband of Josefína (Říha) Zika.","source_summary":"Report","birth_place_id":"PL-0012","death_place_id":"PL-0077","birth_year":1859,"death_year":1948,"birth_place_name":"Bohemia","birth_lat":49.817492,"birth_long":15.472962,"era":"Gilded Age","has_birth_point":true,"has_death_point":false},{"person_id":"P-0020","primary_name":"Josefína “Josie” (Říha) Zika","sex":"female","branch":"Zika","birth_date":"1853","death_date":"1930","notes":"Wife of Anton; Czech immigrant.","source_summary":"Report","birth_place_id":"PL-0012","death_place_id":"PL-0077","birth_year":1853,"death_year":1930,"birth_place_name":"Bohemia","birth_lat":49.817492,"birth_long":15.472962,"era":"Gilded Age","has_birth_point":true,"has_death_point":false},{"person_id":"P-0025","primary_name":"François Pouliot","sex":"male","branch":"Pouliot","birth_date":"1805-05-20","death_date":"1858-06-13","notes":"Farmer at Île d’Orléans; father of Paul.","source_summary":"Report","birth_place_id":"PL-0076","death_place_id":"PL-0077","birth_year":1805,"death_year":1858,"era":"Civil War & Reconstruction","has_birth_point":false,"has_death_point":false},{"person_id":"P-0027","primary_name":"Joseph Filiatrault dit St. Louis","sex":"male","branch":"Pouliot","birth_date":"circa 1820","death_date":"NULL","notes":"Father of Henriette (Filiatrault) Pouliot; Quebec farmer.","source_summary":"Report","birth_place_id":"PL-0076","death_place_id":"PL-0077","birth_year":1820,"era":"Civil War & Reconstruction","has_birth_point":false,"has_death_point":false},{"person_id":"P-0028","primary_name":"Henriette (Cheffre) Filiatrault","sex":"female","branch":"Pouliot","birth_date":"circa 1821","death_date":"NULL","notes":"Wife of Joseph Filiatrault dit St. Louis.","source_summary":"Report","birth_place_id":"PL-0076","death_place_id":"PL-0077","birth_year":1821,"era":"Civil War & Reconstruction","has_birth_point":false,"has_death_point":false},{"person_id":"P-0031","primary_name":"Earl Wayne Reed Jr.","sex":"male","branch":"Reed-Zika","birth_date":"1930","death_date":"2024","notes":"Child of Earl & Isabelle (per obituary).","source_summary":"Report / Obituary","birth_place_id":"PL-0010","death_place_id":"PL-0077","birth_year":1930,"death_year":2024,"birth_place_name":"Chicago, Cook County, Illinois","birth_lat":41.88194,"birth_long":-87.62778,"era":"Modern","has_birth_point":true,"has_death_point":false},{"person_id":"P-0033","primary_name":"James G. Reed","sex":"male","branch":"Reed-Zika","birth_date":"circa 1939","death_date":"NULL","notes":"Child of Earl & Isabelle (6/12 in 1940 census).","source_summary":"Report / 1940 census","birth_place_id":"PL-0010","death_place_id":"PL-0077","birth_year":1939,"birth_place_name":"Chicago, Cook County, Illinois","birth_lat":41.88194,"birth_long":-87.62778,"era":"Modern","has_birth_point":true,"has_death_point":false},{"person_id":"P-0035","primary_name":"Emma Rebecca Reed","sex":"female","branch":"Paternal Reed","birth_date":"1873","death_date":"circa 1905","notes":"Daughter of John T. Reed and Elizabeth Willey.","source_summary":"Report / FamilySearch","birth_place_id":"PL-0076","death_place_id":"PL-0077","birth_year":1873,"death_year":1905,"era":"Gilded Age","has_birth_point":false,"has_death_point":false},{"person_id":"P-0036","primary_name":"Estelle Gertrude Lambert","sex":"female","branch":"Maternal Lambert","birth_date":"1882-10-30","death_date":"1946-05-20","notes":"Daughter of Abiram S. Lambert and Helen Amelia Boles; later wife of John Foulk Reed.","source_summary":"Report FSID:LMWG-K6F","birth_place_id":"PL-0038","death_place_id":"PL-0016","birth_year":1882,"death_year":1946,"birth_place_name":"Seely Township, Guthrie County, Iowa, USA","birth_lat":41.72916,"birth_long":-94.583079,"death_place_name":"Chicago, Cook County, Illinois, USA","death_lat":41.88194,"death_long":-87.62778,"era":"Progressive Era & WWI","has_birth_point":true,"has_death_point":true},{"person_id":"P-0038","primary_name":"James Willey","sex":"male","branch":"Paternal Reed","fs_id":"LCTG-MNQ","birth_date":"1818-03-10","death_date":"1896-07-10","birth_place_id":"PL-0085","death_place_id":"PL-0082","birth_year":1818,"death_year":1896,"birth_place_name":"Greene, Pennsylvania, United States","birth_lat":39.8513322,"birth_long":-80.2466384,"death_place_name":"Caldwell, Noble, Ohio, United States","death_lat":39.7478508,"death_long":-81.5165127,"era":"Civil War & Reconstruction","has_birth_point":true,"has_death_point":true},{"person_id":"P-0039","primary_name":"Emily Thorla","sex":"female","branch":"Paternal Reed","fs_id":"LCTG-MKP","birth_date":"1819-05-15","death_date":"1910-10-08","birth_place_id":"PL-0085","death_place_id":"PL-0101","birth_year":1819,"death_year":1910,"birth_place_name":"Greene, Pennsylvania, United States","birth_lat":39.8513322,"birth_long":-80.2466384,"death_place_name":"Noble, Ohio, United States","death_lat":39.7517148,"death_long":-81.4957347,"era":"Civil War & Reconstruction","has_birth_point":true,"has_death_point":true},{"person_id":"P-0040","primary_name":"Benjamin Reed","sex":"male","branch":"Paternal Reed","fs_id":"LZDK-YP8","birth_date":"1789-12-24","death_date":"1872-05-04","notes":"Pioneer farmer; moved from Pennsylvania to Ohio; husband of Sarah Dickerson.","source_summary":"Report","birth_place_id":"PL-0090","death_place_id":"PL-0111","birth_year":1789,"death_year":1872,"birth_place_name":"Hunterdon, New Jersey, United States","birth_lat":40.5770634,"birth_long":-74.9261552,"death_place_name":"Upper Lowell, Washington, Ohio, United States","death_lat":39.5356291,"death_long":-81.521791,"era":"Early Republic","has_birth_point":true,"has_death_point":true},{"person_id":"P-0041","primary_name":"Sarah Dickerson","sex":"female","branch":"Paternal Reed","fs_id":"991N-J11","birth_date":"1794-10-11","death_date":"1858-01-24","notes":"Matriarch of Reed line in Ohio.","source_summary":"Report","birth_place_id":"PL-0113","death_place_id":"PL-0110","birth_year":1794,"death_year":1858,"birth_place_name":"Washington, Pennsylvania, United States","birth_lat":40.1943798,"birth_long":-80.2541251,"death_place_name":"Upper Lowell, Noble, Ohio, United States","death_lat":39.535629,"death_long":-81.521791,"era":"Early Republic","has_birth_point":true,"has_death_point":true},{"person_id":"P-0042","primary_name":"Stephen Reed","sex":"male","branch":"Paternal Reed","fs_id":"LC5Y-HJ1","birth_date":"1760","death_date":"1814-04","birth_place_id":"PL-0088","death_place_id":"PL-0083","birth_year":1760,"death_year":1814,"birth_place_name":"Hopewell Township, Hunterdon, New Jerse","birth_lat":40.355363,"birth_long":-74.798009,"death_place_name":"Cambridge Township, Guernsey, Ohio, United States","death_lat":40.024652,"death_long":-81.58483,"era":"Colonial Era","has_birth_point":true,"has_death_point":true},{"person_id":"P-0043","primary_name":"Mary Polly Cook","sex":"female","branch":"Paternal Reed","fs_id":"LZVP-5FW","birth_date":"1735-08-08","death_date":"1800-04-04","birth_place_id":"PL-0089","death_place_id":"PL-0100","birth_year":1735,"death_year":1800,"birth_place_name":"Hunterdon, New Jersey","birth_lat":40.566951,"birth_long":-74.920877,"death_place_name":"Newport, Hunterdon, New Jersey, United States","death_lat":40.7251,"death_long":-74.9090573,"era":"Colonial Era","has_birth_point":true,"has_death_point":true},{"person_id":"P-0044","primary_name":"Else Alice Bonham","sex":"female","branch":"Paternal Reed","fs_id":"LCJK-F8G","birth_date":"1762","death_date":"1819","birth_place_id":"PL-0090","death_place_id":"PL-0087","birth_year":1762,"death_year":1819,"birth_place_name":"Hunterdon, New Jersey, United States","birth_lat":40.5770634,"birth_long":-74.9261552,"death_place_name":"Guernsey, Ohio, United States","death_lat":40.0802222,"death_long":-81.4859433,"era":"Colonial Era","has_birth_point":true,"has_death_point":true},{"person_id":"P-0045","primary_name":"John Foulk Talley","sex":"male","branch":"Paternal Reed","fs_id":"L7NJ-1S1","birth_date":"1799-10-26","death_date":"1886-11-04","birth_place_id":"PL-0081","death_place_id":"PL-0112","birth_year":1799,"death_year":1886,"birth_place_name":"Brandywine, New Castle, Delaware, United States","birth_lat":39.8295563,"birth_long":-75.5343681,"death_place_name":"Washington Township, Muskingum, Ohio, United States","death_lat":40.0245901,"death_long":-81.9502188,"era":"Early Republic","has_birth_point":true,"has_death_point":true},{"person_id":"P-0046","primary_name":"Hannah Paulson","sex":"female","branch":"Paternal Reed","fs_id":"2MRH-9JF","birth_date":"1793-08-11","death_date":"1857-09-30","birth_place_id":"PL-0098","death_place_id":"PL-0080","birth_year":1793,"death_year":1857,"birth_place_name":"New Castle, Delaware, United States","birth_lat":39.6159851,"birth_long":-75.662956,"death_place_name":"Bloom Township, Morgan, Ohio, United States","death_lat":39.775847,"death_long":-82.756289,"era":"Early Republic","has_birth_point":true,"has_death_point":true},{"person_id":"P-0047","primary_name":"Samuel R Barnard","sex":"male","branch":"Paternal Reed","fs_id":"LHFS-KPJ","birth_date":"1749-03-09","death_date":"1815-08-08","birth_place_id":"PL-0108","death_place_id":"PL-0084","birth_year":1749,"death_year":1815,"birth_place_name":"Simsbury, Hartford","birth_lat":41.8759152,"birth_long":-72.8012211,"death_place_name":"Connecticut, United States","death_lat":41.6500201,"death_long":-72.7342163,"era":"Colonial Era","has_birth_point":true,"has_death_point":true},{"person_id":"P-0048","primary_name":"Roxana Desire Barnard","sex":"female","branch":"Paternal Reed","fs_id":"L5ZT-BM5","birth_date":"1756-07-21","death_date":"1830-09-09","birth_place_id":"PL-0114","death_place_id":"PL-0109","birth_year":1756,"death_year":1830,"birth_place_name":"Windsor, Hartford, Connecticut","birth_lat":41.852598,"birth_long":-72.643702,"death_place_name":"Simsbury, Hartford, Connecticut, United States","death_lat":41.8759152,"death_long":-72.8012211,"era":"Colonial Era","has_birth_point":true,"has_death_point":true},{"person_id":"P-0049","primary_name":"William Polk Willey","sex":"male","branch":"Paternal Reed","fs_id":"LHW8-G58","birth_date":"1788-01-06","death_date":"1860-04-06","birth_place_id":"PL-0097","death_place_id":"PL-0105","birth_year":1788,"death_year":1860,"birth_place_name":"Nanticoke Hundred, Sussex, Delaware, United States","birth_lat":38.653084,"birth_long":-75.434473,"death_place_name":"Renrock, Noble, Ohio, United States","death_lat":39.7581278,"death_long":-81.6726288,"era":"Early Republic","has_birth_point":true,"has_death_point":true},{"person_id":"P-0050","primary_name":"Sarah Dye","sex":"female","branch":"Paternal Reed","fs_id":"278F-M4D","birth_date":"1789-05-27","death_date":"1840-08-16","birth_place_id":"PL-0085","death_place_id":"PL-0105","birth_year":1789,"death_year":1840,"birth_place_name":"Greene, Pennsylvania, United States","birth_lat":39.8513322,"birth_long":-80.2466384,"death_place_name":"Renrock, Noble, Ohio, United States","death_lat":39.7581278,"death_long":-81.6726288,"era":"Early Republic","has_birth_point":true,"has_death_point":true},{"person_id":"P-0051","primary_name":"Benjamin Thorla","sex":"male","branch":"Paternal Reed","fs_id":"KLYD-X1Q","birth_date":"1790-09-14","death_date":"1861-07-05","birth_place_id":"PL-0099","death_place_id":"PL-0082","birth_year":1790,"death_year":1861,"birth_place_name":"New Hampshire, United States","birth_lat":43.4849133,"birth_long":-71.6553992,"death_place_name":"Caldwell, Noble, Ohio, United States","death_lat":39.7478508,"death_long":-81.5165127,"era":"Early Republic","has_birth_point":true,"has_death_point":true},{"person_id":"P-0052","primary_name":"Elizabeth Allen","sex":"female","branch":"Paternal Reed","fs_id":"2S2L-ZYQ","birth_date":"1794-07-05","death_date":"1872-04-12","birth_place_id":"PL-0096","death_place_id":"PL-0082","birth_year":1794,"death_year":1872,"birth_place_name":"Lebanon, Grafton, New Hampshire, United States","birth_lat":43.643032,"birth_long":-72.251587,"death_place_name":"Caldwell, Noble, Ohio, United States","death_lat":39.7478508,"death_long":-81.5165127,"era":"Early Republic","has_birth_point":true,"has_death_point":true},{"person_id":"P-0053","primary_name":"Edward Kenny","sex":"male","branch":"Paternal Kenny","fs_id":"L274-KLZ","birth_date":"23 March 1933","death_date":"13 June 1978","notes":"Imported from FamilySearch extract on 2026-05-26.","source_summary":"FamilySearch (FS PID: L274-KLZ)","birth_place_id":"PL-0155","birth_year":1933,"death_year":1978,"birth_place_name":"County Dublin, Ireland","birth_lat":53.3522,"birth_long":-6.26,"era":"Modern","has_birth_point":true,"has_death_point":false},{"person_id":"P-0054","primary_name":"Phyllis Kroll","sex":"female","branch":"Paternal Kroll","fs_id":"L274-KGR","birth_date":"1931","death_date":"May 2020","notes":"Imported from FamilySearch extract on 2026-05-26.","source_summary":"FamilySearch (FS PID: L274-KGR)","birth_year":1931,"death_year":2020,"era":"Modern","has_birth_point":false,"has_death_point":false},{"person_id":"P-0055","primary_name":"Leah Rae Mariotti","sex":"female","branch":"Maternal Mariotti","fs_id":"L274-KT7","birth_date":"1936-09-08","death_date":"2025-07-21","notes":"NULL","source_summary":"FamilySearch (FS PID: L274-KT7)","birth_place_id":"PL-0158","death_place_id":"PL-0159","birth_year":1936,"death_year":2025,"birth_place_name":"Chicago, Cook, Illinois, United States","birth_lat":41.8853,"birth_long":-87.6338,"death_place_name":"Aurora, Kane, Illinois, United States","death_lat":41.7606,"death_long":-88.32,"era":"Modern","has_birth_point":true,"has_death_point":true},{"person_id":"P-0056","primary_name":"John Ronald Reed Sr","sex":"male","branch":"Paternal Reed","fs_id":"LY94-373","birth_date":"1934-07-18","death_date":"1995-05-02","notes":"Child of Earl & Isabelle (age 5 in 1940 census).","source_summary":"FamilySearch (FS PID: LY94-373)","birth_place_id":"PL-0158","death_place_id":"PL-0163","birth_year":1934,"death_year":1995,"birth_place_name":"Chicago, Cook, Illinois, United States","birth_lat":41.8853,"birth_long":-87.6338,"death_place_name":"Glen Ellyn, DuPage, Illinois, United States","death_lat":41.8775,"death_long":-88.0669,"era":"Modern","has_birth_point":true,"has_death_point":true},{"person_id":"P-0057","primary_name":"Laura Kroll","sex":"female","branch":"Paternal Kroll","fs_id":"L24Z-SFM","notes":"Imported from FamilySearch extract on 2026-05-26.","source_summary":"FamilySearch (FS PID: L24Z-SFM)","era":null,"has_birth_point":false,"has_death_point":false},{"person_id":"P-0058","primary_name":"Isabelle Harriet Zika","sex":"female","branch":"Zika","fs_id":"LY94-DBH","birth_date":"3 December 1913","death_date":"13 October 2006","notes":"Daughter of John F. Zika & Delina Pouliot; Chicago area.","source_summary":"FamilySearch (FS PID: LY94-DBH)","birth_place_id":"PL-0158","death_place_id":"PL-0172","birth_year":1913,"death_year":2006,"birth_place_name":"Chicago, Cook, Illinois, United States","birth_lat":41.8853,"birth_long":-87.6338,"death_place_name":"Schaumburg, Cook, Illinois, United States","death_lat":42.0333,"death_long":-88.0833,"era":"Roaring 20s & Great Depression","has_birth_point":true,"has_death_point":true},{"person_id":"P-0059","primary_name":"Ugo Mariotti","sex":"male","branch":"Maternal Mariotti","fs_id":"PWPQ-D8V","birth_date":"21 July 1903","death_date":"20 February 1982","notes":"Imported from FamilySearch extract on 2026-05-26.","source_summary":"FamilySearch (FS PID: PWPQ-D8V)","birth_place_id":"PL-0178","death_place_id":"PL-0179","birth_year":1903,"death_year":1982,"birth_place_name":"Cintolese, Monsummano Terme, Pistoia, Tuscany, Italy","birth_lat":43.843651,"birth_long":10.827214,"death_place_name":"Cicero, Cook, Illinois, United States","death_lat":41.8456,"death_long":-87.7539,"era":"Roaring 20s & Great Depression","has_birth_point":true,"has_death_point":true},{"person_id":"P-0060","primary_name":"Lena  A Dini","sex":"female","branch":"Maternal Mariotti","fs_id":"L278-SXK","birth_date":"16 June 1909","death_date":"6 June 1988","notes":"Imported from FamilySearch extract on 2026-05-26.","source_summary":"FamilySearch (FS PID: L278-SXK)","birth_place_id":"PL-0179","death_place_id":"PL-0187","birth_year":1909,"death_year":1988,"birth_place_name":"Cicero, Cook, Illinois, United States","birth_lat":41.8456,"birth_long":-87.7539,"death_place_name":"Berwyn, Cook, Illinois, United States","death_lat":41.8506,"death_long":-87.7936,"era":"Roaring 20s & Great Depression","has_birth_point":true,"has_death_point":true},{"person_id":"P-0061","primary_name":"John Foulk Reed","sex":"male","branch":"Paternal Reed","fs_id":"KLGC-TLC","birth_date":"1877-11-25","death_date":"1952-03-30","notes":"Son of John T. Reed and Elizabeth Willey; later father of Earl Wayne Reed.","source_summary":"FamilySearch (FS PID: KLGC-TLC)","birth_place_id":"PL-0196","death_place_id":"PL-0197","birth_year":1877,"death_year":1952,"birth_place_name":"Monteith, Guthrie, Iowa, United States","birth_lat":41.6314,"birth_long":-94.4283,"death_place_name":"Davenport, Scott, Iowa, United States","death_lat":41.5236,"death_long":-90.5775,"era":"Progressive Era & WWI","has_birth_point":true,"has_death_point":true},{"person_id":"P-0062","primary_name":"Earl Wayne Reed Sr","sex":"male","branch":"Paternal Reed","fs_id":"M3P5-XF6","birth_date":"1899-07-19","death_date":"1974-04-11","notes":"Married Isabelle Zika; lived in Chicago; possible WWI/WWII service.","source_summary":"FamilySearch (FS PID: M3P5-XF6)","birth_place_id":"PL-0208","death_place_id":"PL-0077","birth_year":1899,"death_year":1974,"birth_place_name":"Guthrie, Iowa, United States","birth_lat":41.683329,"birth_long":-94.500559,"era":"Roaring 20s & Great Depression","has_birth_point":true,"has_death_point":false},{"person_id":"P-0063","primary_name":"Estella Gertrude Lambert","sex":"female","branch":"Maternal Lambert","fs_id":"LMWG-K6F","birth_date":"30 October 1882","death_date":"20 May 1946","notes":"Imported from FamilySearch extract on 2026-05-26.","source_summary":"FamilySearch (FS PID: LMWG-K6F)","birth_place_id":"PL-0220","death_place_id":"PL-0158","birth_year":1882,"death_year":1946,"birth_place_name":"Seely Township, Guthrie, Iowa, United States","birth_lat":41.73806,"birth_long":-94.56944,"death_place_name":"Chicago, Cook, Illinois, United States","death_lat":41.8853,"death_long":-87.6338,"era":"Progressive Era & WWI","has_birth_point":true,"has_death_point":true},{"person_id":"P-0064","primary_name":"John Francis Zika","sex":"male","branch":"Zika","fs_id":"L2XV-HRY","birth_date":"1875-10-10","death_date":"1957-06-09","notes":"Boilermaker in Chicago; Czech-American community.","source_summary":"FamilySearch (FS PID: L2XV-HRY)","birth_place_id":"PL-0233","death_place_id":"PL-0158","birth_year":1875,"death_year":1957,"birth_place_name":"Beneschau, Bohemia, Austria","birth_lat":49.666667,"birth_long":14.75,"death_place_name":"Chicago, Cook, Illinois, United States","death_lat":41.8853,"death_long":-87.6338,"era":"Progressive Era & WWI","has_birth_point":true,"has_death_point":true},{"person_id":"P-0065","primary_name":"Louis Dini","sex":"male","branch":"Maternal Mariotti","fs_id":"GCKQ-RK3","birth_date":"1873","notes":"Imported from FamilySearch extract on 2026-05-26.","source_summary":"FamilySearch (FS PID: GCKQ-RK3)","birth_place_id":"PL-0247","birth_year":1873,"birth_place_name":"Italy","birth_lat":43.1,"birth_long":12.3,"era":"Gilded Age","has_birth_point":true,"has_death_point":false},{"person_id":"P-0066","primary_name":"Zelinda Pagni","sex":"female","branch":"Maternal Mariotti","fs_id":"GCKQ-6RJ","birth_date":"6 September 1874","death_date":"9 November 1936","notes":"Imported from FamilySearch extract on 2026-05-26.","source_summary":"FamilySearch (FS PID: GCKQ-6RJ)","birth_place_id":"PL-0262","death_place_id":"PL-0179","birth_year":1874,"death_year":1936,"birth_place_name":"Spianate, Altopascio, Lucca, Tuscany, Italy","birth_lat":43.808888,"birth_long":10.714703,"death_place_name":"Cicero, Cook, Illinois, United States","death_lat":41.8456,"death_long":-87.7539,"era":"Gilded Age","has_birth_point":true,"has_death_point":true},{"person_id":"P-0067","primary_name":"Leopoldo Mariotti","sex":"male","branch":"Maternal Mariotti","fs_id":"PWPW-LPC","birth_date":"29 October 1871","death_date":"3 March 1933","notes":"Imported from FamilySearch extract on 2026-05-26.","source_summary":"FamilySearch (FS PID: PWPW-LPC)","birth_place_id":"PL-0278","death_place_id":"PL-0247","birth_year":1871,"death_year":1933,"birth_place_name":"Cintolese, Monsummano, Pistoia, Tuscany, Italy","birth_lat":43.843651,"birth_long":10.827214,"death_place_name":"Italy","death_lat":43.1,"death_long":12.3,"era":"Gilded Age","has_birth_point":true,"has_death_point":true},{"person_id":"P-0068","primary_name":"Beatrice Delina Pouliot","sex":"female","branch":"Pouliot","fs_id":"LBHY-3B5","birth_date":"1878-04-14","death_date":"1964-08-01","notes":"French-Canadian descent; married John F. Zika.","source_summary":"FamilySearch (FS PID: LBHY-3B5)","birth_place_id":"PL-0158","death_place_id":"PL-0031","birth_year":1878,"death_year":1964,"birth_place_name":"Chicago, Cook, Illinois, United States","birth_lat":41.8853,"birth_long":-87.6338,"death_place_name":"Cook County, Illinois, USA","death_lat":41.7377,"death_long":-87.6975999999999,"era":"Progressive Era & WWI","has_birth_point":true,"has_death_point":true},{"person_id":"P-0069","primary_name":"Quintilia Lenzi","sex":"female","branch":"Maternal Mariotti","fs_id":"PWP7-JQ8","birth_date":"23 November 1876","death_date":"9 September 1960","notes":"Imported from FamilySearch extract on 2026-05-26.","source_summary":"FamilySearch (FS PID: PWP7-JQ8)","birth_place_id":"PL-0247","death_place_id":"PL-0247","birth_year":1876,"death_year":1960,"birth_place_name":"Italy","birth_lat":43.1,"birth_long":12.3,"death_place_name":"Italy","death_lat":43.1,"death_long":12.3,"era":"Progressive Era & WWI","has_birth_point":true,"has_death_point":true},{"person_id":"P-0070","primary_name":"John Talley Reed","sex":"male","branch":"Paternal Reed","fs_id":"L487-WDC","birth_date":"1841-06-26","death_date":"1903-11-11","notes":"Farmer in Valley Township; married Elizabeth Willey (1861) then Mary E. Headlee (~1881).","source_summary":"FamilySearch (FS PID: L487-WDC)","birth_place_id":"PL-0327","death_place_id":"PL-0328","birth_year":1841,"death_year":1903,"birth_place_name":"Woodsfield, Monroe, Ohio, United States","birth_lat":39.763588,"birth_long":-81.114723,"death_place_name":"Valley Township, Guthrie, Iowa, United States","death_lat":41.64472,"death_long":-94.46056,"era":"Gilded Age","has_birth_point":true,"has_death_point":true},{"person_id":"P-0071","primary_name":"Elizabeth Willey","sex":"female","branch":"Paternal Reed","fs_id":"KJP4-9R4","birth_date":"26 June 1846","death_date":"21 December 1880","notes":"Imported from FamilySearch extract on 2026-05-26.","source_summary":"FamilySearch (FS PID: KJP4-9R4)","birth_place_id":"PL-0347","death_place_id":"PL-0208","birth_year":1846,"death_year":1880,"birth_place_name":"Noble Township, Morgan, Ohio, United States","birth_lat":39.78528,"birth_long":-81.54222,"death_place_name":"Guthrie, Iowa, United States","death_lat":41.683329,"death_long":-94.500559,"era":"Gilded Age","has_birth_point":true,"has_death_point":true},{"person_id":"P-0072","primary_name":"Abiram Stacy Lambert","sex":"male","branch":"Maternal Lambert","fs_id":"2WFL-ZVT","birth_date":"1831-01-09","death_date":"1927-04-28","notes":"Civil War veteran (Co. L, 3rd Iowa Cavalry); farmer in Guthrie County, Iowa.","source_summary":"FamilySearch (FS PID: 2WFL-ZVT)","birth_place_id":"PL-0367","death_place_id":"PL-0368","birth_year":1831,"death_year":1927,"birth_place_name":"Salem, Washington Township, Washington, Indiana, United States","birth_lat":38.6056,"birth_long":-86.1011,"death_place_name":"Falls City, Lincoln, Idaho, United States","death_lat":42.6806,"death_long":-114.4233,"era":"Civil War & Reconstruction","has_birth_point":true,"has_death_point":true},{"person_id":"P-0073","primary_name":"Celestino Dini","sex":"male","branch":"Maternal Mariotti","fs_id":"GSQJ-M1C","birth_date":"23 September 1845","notes":"Imported from FamilySearch extract on 2026-05-26.","source_summary":"FamilySearch (FS PID: GSQJ-M1C)","birth_place_id":"PL-0390","birth_year":1845,"birth_place_name":"Ponte Buggianese, Pistoia, Tuscany, Italy","birth_lat":43.841,"birth_long":10.7476,"era":"Gilded Age","has_birth_point":true,"has_death_point":false},{"person_id":"P-0074","primary_name":"Helen Amelia Boles","sex":"female","fs_id":"29WD-T9P","birth_date":"10 June 1849","death_date":"23 January 1939","notes":"Imported from FamilySearch extract on 2026-05-26.","source_summary":"FamilySearch (FS PID: 29WD-T9P)","birth_place_id":"PL-0413","death_place_id":"PL-0208","birth_year":1849,"death_year":1939,"birth_place_name":"Hillsdale, Michigan, United States","birth_lat":41.91695,"birth_long":-84.62055,"death_place_name":"Guthrie, Iowa, United States","death_lat":41.683329,"death_long":-94.500559,"era":"Gilded Age","has_birth_point":true,"has_death_point":true},{"person_id":"P-0075","primary_name":"Anton Zika","sex":"male","branch":"Zika","fs_id":"LKTC-D4S","birth_date":"22 July 1848","death_date":"22 December 1924","notes":"Imported from FamilySearch extract on 2026-05-26.","source_summary":"FamilySearch (FS PID: LKTC-D4S)","birth_place_id":"PL-0233","death_place_id":"PL-0158","birth_year":1848,"death_year":1924,"birth_place_name":"Beneschau, Bohemia, Austria","birth_lat":49.666667,"birth_long":14.75,"death_place_name":"Chicago, Cook, Illinois, United States","death_lat":41.8853,"death_long":-87.6338,"era":"Gilded Age","has_birth_point":true,"has_death_point":true},{"person_id":"P-0076","primary_name":"Henriette St. Louis","sex":"female","fs_id":"MGNK-YL2","birth_date":"1840-03-01","death_date":"22 January 1890","notes":"Wife of Paul Pouliot; French-Canadian.","source_summary":"FamilySearch (FS PID: MGNK-YL2)","birth_place_id":"PL-0049","death_place_id":"PL-0158","birth_year":1840,"death_year":1890,"birth_place_name":"New York, USA","birth_lat":40.7128,"birth_long":-74.006,"death_place_name":"Chicago, Cook, Illinois, United States","death_lat":41.8853,"death_long":-87.6338,"era":"Gilded Age","has_birth_point":true,"has_death_point":true},{"person_id":"P-0077","primary_name":"Josephine Riha Veta","sex":"female","fs_id":"LBH1-TK2","birth_date":"22 April 1854","death_date":"before 1964","notes":"Imported from FamilySearch extract on 2026-05-26.","source_summary":"FamilySearch (FS PID: LBH1-TK2)","birth_place_id":"PL-0233","birth_year":1854,"death_year":1964,"birth_place_name":"Beneschau, Bohemia, Austria","birth_lat":49.666667,"birth_long":14.75,"era":"Gilded Age","has_birth_point":true,"has_death_point":false},{"person_id":"P-0078","primary_name":"Paul Pouliot","sex":"male","branch":"Pouliot","fs_id":"96JW-KX5","birth_date":"1834-03-24","death_date":"1903-05-10","notes":"French-Canadian immigrant; father of Delina.","source_summary":"FamilySearch (FS PID: 96JW-KX5)","birth_place_id":"PL-0506","death_place_id":"PL-0158","birth_year":1834,"death_year":1903,"birth_place_name":"Saint-Laurent, L'Île-d'Orléans, Quebec, Canada","birth_lat":46.8664,"birth_long":-71.0116,"death_place_name":"Chicago, Cook, Illinois, United States","death_lat":41.8853,"death_long":-87.6338,"era":"Civil War & Reconstruction","has_birth_point":true,"has_death_point":true},{"person_id":"P-0079","primary_name":"Angiolo Pagni","sex":"male","branch":"Maternal Mariotti","fs_id":"P7P4-4TS","birth_date":"1847","death_date":"3 January 1925","notes":"Imported from FamilySearch extract on 2026-05-26.","source_summary":"FamilySearch (FS PID: P7P4-4TS)","birth_place_id":"PL-0262","death_place_id":"PL-0531","birth_year":1847,"death_year":1925,"birth_place_name":"Spianate, Altopascio, Lucca, Tuscany, Italy","birth_lat":43.808888,"birth_long":10.714703,"death_place_name":"Pescia, Lucca, Tuscany, Italy","death_lat":43.9078,"death_long":10.6888,"era":"Gilded Age","has_birth_point":true,"has_death_point":true},{"person_id":"P-0080","primary_name":"Maria Emilia Dini","sex":"female","branch":"Maternal Mariotti","fs_id":"P99J-6YC","birth_date":"8 June 1843","death_date":"26 November 1913","notes":"Imported from FamilySearch extract on 2026-05-26.","source_summary":"FamilySearch (FS PID: P99J-6YC)","birth_place_id":"PL-0390","death_place_id":"PL-0557","birth_year":1843,"death_year":1913,"birth_place_name":"Ponte Buggianese, Pistoia, Tuscany, Italy","birth_lat":43.841,"birth_long":10.7476,"death_place_name":"Chiesina Uzzanese, Pistoia, Tuscany, Italy","death_lat":43.8415,"death_long":10.719,"era":"Gilded Age","has_birth_point":true,"has_death_point":true},{"person_id":"P-0081","primary_name":"Cherubina Giorgi","sex":"female","branch":"Maternal Mariotti","fs_id":"P3YM-9YQ","birth_date":"2 July 1844","notes":"Imported from FamilySearch extract on 2026-05-26.","source_summary":"FamilySearch (FS PID: P3YM-9YQ)","birth_place_id":"PL-0262","birth_year":1844,"birth_place_name":"Spianate, Altopascio, Lucca, Tuscany, Italy","birth_lat":43.808888,"birth_long":10.714703,"era":"Gilded Age","has_birth_point":true,"has_death_point":false},{"person_id":"P-0082","primary_name":"Bonam Reed","sex":"male","branch":"Paternal Reed","fs_id":"27XF-VBH","birth_date":"3 June 1816","death_date":"13 December 1893","notes":"Imported from FamilySearch extract on 2026-05-26.","source_summary":"FamilySearch (FS PID: 27XF-VBH)","birth_place_id":"PL-0610","death_place_id":"PL-0196","birth_year":1816,"death_year":1893,"birth_place_name":"Wills Creek, Coshocton, Ohio, United States","birth_lat":40.18,"birth_long":-81.8508,"death_place_name":"Monteith, Guthrie, Iowa, United States","death_lat":41.6314,"death_long":-94.4283,"era":"Civil War & Reconstruction","has_birth_point":true,"has_death_point":true},{"person_id":"P-0083","primary_name":"Rebecca Talley","sex":"female","branch":"Paternal Reed","fs_id":"L7J3-GVG","birth_date":"7 November 1822","death_date":"16 July 1911","notes":"Imported from FamilySearch extract on 2026-05-26.","source_summary":"FamilySearch (FS PID: L7J3-GVG)","birth_place_id":"PL-0638","death_place_id":"PL-0196","birth_year":1822,"death_year":1911,"birth_place_name":"Morgan, Ohio, United States","birth_lat":39.616669,"birth_long":-81.83333,"death_place_name":"Monteith, Guthrie, Iowa, United States","death_lat":41.6314,"death_long":-94.4283,"era":"Civil War & Reconstruction","has_birth_point":true,"has_death_point":true},{"person_id":"P-0084","primary_name":"David Lambert","sex":"male","branch":"Maternal Lambert","fs_id":"L7XP-Y6P","birth_date":"17 January 1790","death_date":"15 December 1865","notes":"Imported from FamilySearch extract on 2026-05-26.","source_summary":"FamilySearch (FS PID: L7XP-Y6P)","birth_place_id":"PL-0667","death_place_id":"PL-0668","birth_year":1790,"death_year":1865,"birth_place_name":"Canaan, Somerset, Maine, United States","birth_lat":44.7783,"birth_long":-69.545,"death_place_name":"Shellsburg, Benton, Iowa, United States","death_lat":42.0922,"death_long":-91.8717,"era":"Early Republic","has_birth_point":true,"has_death_point":true},{"person_id":"P-0085","primary_name":"Permelia Barnard","sex":"female","branch":"Paternal Reed","fs_id":"LDFM-SM7","birth_date":"12 June 1798","death_date":"15 December 1865","notes":"Imported from FamilySearch extract on 2026-05-26.","source_summary":"FamilySearch (FS PID: LDFM-SM7)","birth_place_id":"PL-0699","death_place_id":"PL-0668","birth_year":1798,"death_year":1865,"birth_place_name":"Rome, Oneida, New York, United States","birth_lat":43.2196,"birth_long":-75.4559,"death_place_name":"Shellsburg, Benton, Iowa, United States","death_lat":42.0922,"death_long":-91.8717,"era":"Early Republic","has_birth_point":true,"has_death_point":true},{"person_id":"P-0086","primary_name":"Silas A. Boles","sex":"male","fs_id":"KN1Q-9L5","birth_date":"28 April 1819","death_date":"3 April 1900","notes":"Imported from FamilySearch extract on 2026-05-26.","source_summary":"FamilySearch (FS PID: KN1Q-9L5)","birth_place_id":"PL-0731","death_place_id":"PL-0732","birth_year":1819,"death_year":1900,"birth_place_name":"Saratoga, New York, United States","birth_lat":43.1,"birth_long":-73.85,"death_place_name":"Bayard, Guthrie, Iowa, United States","death_lat":41.8519,"death_long":-94.5581,"era":"Civil War & Reconstruction","has_birth_point":true,"has_death_point":true},{"person_id":"P-0087","primary_name":"František Zíka","sex":"male","branch":"Zika","fs_id":"GWCT-J3K","birth_date":"27 April 1801","death_date":"3 July 1872","notes":"Imported from FamilySearch extract on 2026-05-26.","source_summary":"FamilySearch (FS PID: GWCT-J3K)","birth_place_id":"PL-0233","death_place_id":"PL-0233","birth_year":1801,"death_year":1872,"birth_place_name":"Beneschau, Bohemia, Austria","birth_lat":49.666667,"birth_long":14.75,"death_place_name":"Beneschau, Bohemia, Austria","death_lat":49.666667,"death_long":14.75,"era":"Early Republic","has_birth_point":true,"has_death_point":true},{"person_id":"P-0088","primary_name":"Marie Anna Říhová","sex":"female","fs_id":"GWCT-VWD","birth_date":"21 March 1820","death_date":"18 October 1871","notes":"Imported from FamilySearch extract on 2026-05-26.","source_summary":"FamilySearch (FS PID: GWCT-VWD)","birth_place_id":"PL-0233","death_place_id":"PL-0233","birth_year":1820,"death_year":1871,"birth_place_name":"Beneschau, Bohemia, Austria","birth_lat":49.666667,"birth_long":14.75,"death_place_name":"Beneschau, Bohemia, Austria","death_lat":49.666667,"death_long":14.75,"era":"Civil War & Reconstruction","has_birth_point":true,"has_death_point":true},{"person_id":"P-0089","primary_name":"Františka Klusová","sex":"female","fs_id":"GWCT-JQN","birth_date":"before 1840","death_date":"before 1950","notes":"Imported from FamilySearch extract on 2026-05-26.","source_summary":"FamilySearch (FS PID: GWCT-JQN)","birth_place_id":"PL-0233","birth_year":1840,"death_year":1950,"birth_place_name":"Beneschau, Bohemia, Austria","birth_lat":49.666667,"birth_long":14.75,"era":"Gilded Age","has_birth_point":true,"has_death_point":false},{"person_id":"P-0090","primary_name":"František Říha","sex":"male","fs_id":"GS6J-92Z","birth_date":"before 1840","death_date":"before 1960","notes":"Imported from FamilySearch extract on 2026-05-26.","source_summary":"FamilySearch (FS PID: GS6J-92Z)","birth_place_id":"PL-0233","birth_year":1840,"death_year":1960,"birth_place_name":"Beneschau, Bohemia, Austria","birth_lat":49.666667,"birth_long":14.75,"era":"Gilded Age","has_birth_point":true,"has_death_point":false},{"person_id":"P-0091","primary_name":"Francois Pouliot","sex":"male","branch":"Pouliot","fs_id":"KCTF-J6N","birth_date":"20 May 1805","death_date":"13 June 1858","notes":"Imported from FamilySearch extract on 2026-05-26.","source_summary":"FamilySearch (FS PID: KCTF-J6N)","birth_place_id":"PL-0506","death_place_id":"PL-0506","birth_year":1805,"death_year":1858,"birth_place_name":"Saint-Laurent, L'Île-d'Orléans, Quebec, Canada","birth_lat":46.8664,"birth_long":-71.0116,"death_place_name":"Saint-Laurent, L'Île-d'Orléans, Quebec, Canada","death_lat":46.8664,"death_long":-71.0116,"era":"Civil War & Reconstruction","has_birth_point":true,"has_death_point":true},{"person_id":"P-0092","primary_name":"Martha Lovina Spears","sex":"female","fs_id":"KN1Q-GH1","birth_date":"25 April 1823","death_date":"24 December 1895","notes":"Wife of Silas P. Boles.","source_summary":"FamilySearch (FS PID: KN1Q-GH1)","birth_place_id":"PL-0931","death_place_id":"PL-0732","birth_year":1823,"death_year":1895,"birth_place_name":"Trumbull, Ohio, United States","birth_lat":41.31667,"birth_long":-80.76667,"death_place_name":"Bayard, Guthrie, Iowa, United States","death_lat":41.8519,"death_long":-94.5581,"era":"Civil War & Reconstruction","has_birth_point":true,"has_death_point":true},{"person_id":"P-0093","primary_name":"Joseph Filiatrault dit St. Louis","sex":"male","fs_id":"GYV7-TRD","notes":"Imported from FamilySearch extract on 2026-05-26.","source_summary":"FamilySearch (FS PID: GYV7-TRD)","era":null,"has_birth_point":false,"has_death_point":false},{"person_id":"P-0094","primary_name":"Julie Audet dit Lapointe","sex":"female","fs_id":"96JW-KFH","birth_date":"1812-03-01","death_date":"1894-04-03","notes":"Wife of François; Audet dit Lapointe line.","source_summary":"FamilySearch (FS PID: 96JW-KFH)","birth_place_id":"PL-1000","death_place_id":"PL-1001","birth_year":1812,"death_year":1894,"birth_place_name":"Saint-Jean-Baptiste, Montmorency No. 2, Quebec, Canada","birth_lat":46.9219,"birth_long":-70.8892,"death_place_name":"Saint-Laurent, Montmorency No. 2, Quebec, Canada","death_lat":46.8664,"death_long":-71.0116,"era":"Civil War & Reconstruction","has_birth_point":true,"has_death_point":true},{"person_id":"P-0095","primary_name":"Domenico Dini","sex":"male","branch":"Maternal Mariotti","fs_id":"PMCT-5RX","birth_date":"1806","death_date":"18 October 1888","notes":"Imported from FamilySearch extract on 2026-05-26.","source_summary":"FamilySearch (FS PID: PMCT-5RX)","birth_place_id":"PL-1038","death_place_id":"PL-1039","birth_year":1806,"death_year":1888,"birth_place_name":"Albinatico, Ponte Buggianese, Buggiano, Lucca, Tuscany, Italy","birth_lat":43.846949,"birth_long":10.759054,"death_place_name":"Albinatico, Ponte Buggianese, Pistoia, Tuscany, Italy","death_lat":43.846949,"death_long":10.759054,"era":"Civil War & Reconstruction","has_birth_point":true,"has_death_point":true},{"person_id":"P-0096","primary_name":"Pasqua Rosa Spadoni","sex":"female","branch":"Maternal Mariotti","fs_id":"GSQJ-4RC","birth_date":"about 1805","notes":"Imported from FamilySearch extract on 2026-05-26.","source_summary":"FamilySearch (FS PID: GSQJ-4RC)","birth_place_id":"PL-0390","birth_year":1805,"birth_place_name":"Ponte Buggianese, Pistoia, Tuscany, Italy","birth_lat":43.841,"birth_long":10.7476,"era":"Civil War & Reconstruction","has_birth_point":true,"has_death_point":false},{"person_id":"P-0097","primary_name":"Henriette Cheffre","sex":"female","fs_id":"GYVW-44Y","notes":"Imported from FamilySearch extract on 2026-05-26.","source_summary":"FamilySearch (FS PID: GYVW-44Y)","era":null,"has_birth_point":false,"has_death_point":false},{"person_id":"P-0098","primary_name":"Leopoldo Pagni","sex":"male","branch":"Maternal Mariotti","fs_id":"P7PW-CCK","birth_date":"about 1810","notes":"Imported from FamilySearch extract on 2026-05-26.","source_summary":"FamilySearch (FS PID: P7PW-CCK)","birth_year":1810,"era":"Civil War & Reconstruction","has_birth_point":false,"has_death_point":false},{"person_id":"P-0099","primary_name":"Giovanni Dini","sex":"male","branch":"Maternal Mariotti","fs_id":"P355-XWC","birth_date":"1803","death_date":"22 December 1878","notes":"Imported from FamilySearch extract on 2026-05-26.","source_summary":"FamilySearch (FS PID: P355-XWC)","death_place_id":"PL-0390","birth_year":1803,"death_year":1878,"death_place_name":"Ponte Buggianese, Pistoia, Tuscany, Italy","death_lat":43.841,"death_long":10.7476,"era":"Early Republic","has_birth_point":false,"has_death_point":true},{"person_id":"P-0100","primary_name":"Maria Cristiana Niccolai","sex":"female","branch":"Maternal Mariotti","fs_id":"PMCT-ZRN","birth_date":"1807","death_date":"29 September 1870","notes":"Imported from FamilySearch extract on 2026-05-26.","source_summary":"FamilySearch (FS PID: PMCT-ZRN)","birth_place_id":"PL-1230","death_place_id":"PL-1038","birth_year":1807,"death_year":1870,"birth_place_name":"Monsummano, Lucca, Tuscany","birth_lat":43.8722,"birth_long":10.8157,"death_place_name":"Albinatico, Ponte Buggianese, Buggiano, Lucca, Tuscany, Italy","death_lat":43.846949,"death_long":10.759054,"era":"Civil War & Reconstruction","has_birth_point":true,"has_death_point":true},{"person_id":"P-0101","primary_name":"Piera Bellandi","sex":"female","fs_id":"PC4W-R8N","birth_date":"about 1815","death_date":"after 1872","notes":"Imported from FamilySearch extract on 2026-05-26.","source_summary":"FamilySearch (FS PID: PC4W-R8N)","birth_year":1815,"death_year":1872,"era":"Civil War & Reconstruction","has_birth_point":false,"has_death_point":false},{"person_id":"P-0102","primary_name":"Pellegrino Giorgi","sex":"male","branch":"Maternal Mariotti","fs_id":"P7P4-8PM","notes":"Imported from FamilySearch extract on 2026-05-26.","source_summary":"FamilySearch (FS PID: P7P4-8PM)","era":null,"has_birth_point":false,"has_death_point":false},{"person_id":"P-0103","primary_name":"Nancy Walls","sex":"female","fs_id":"K4BN-VM7","notes":"Imported from FamilySearch extract on 2026-05-26.","source_summary":"FamilySearch (FS PID: K4BN-VM7)","era":null,"has_birth_point":false,"has_death_point":false},{"person_id":"P-0104","primary_name":"Thomas Spear","sex":"male","fs_id":"K8F2-Y27","notes":"Imported from FamilySearch extract on 2026-05-26.","source_summary":"FamilySearch (FS PID: K8F2-Y27)","era":null,"has_birth_point":false,"has_death_point":false},{"person_id":"P-0105","primary_name":"Sherebiah Lambert Jr","sex":"male","branch":"Maternal Lambert","fs_id":"LDF8-39B","birth_date":"11 September 1759","death_date":"1 May 1833","notes":"Revolutionary veteran; moved to Ohio by ~1819; later married Permelia Oak.","source_summary":"FamilySearch (FS PID: LDF8-39B)","birth_place_id":"PL-1426","death_place_id":"PL-0667","birth_year":1759,"death_year":1833,"birth_place_name":"Wiscasset, Wiscasset, Lincoln, Massachusetts, United States","birth_lat":44.00278,"birth_long":-69.66611,"death_place_name":"Canaan, Somerset, Maine, United States","death_lat":44.7783,"death_long":-69.545,"era":"Colonial Era","has_birth_point":true,"has_death_point":true},{"person_id":"P-0106","primary_name":"Permelia \"Millie\" Oaks","sex":"female","fs_id":"LZNM-W98","birth_date":"11 September 1768","death_date":"6 January 1845","notes":"Imported from FamilySearch extract on 2026-05-26.","source_summary":"FamilySearch (FS PID: LZNM-W98)","birth_place_id":"PL-1467","death_place_id":"PL-0667","birth_year":1768,"death_year":1845,"birth_place_name":"Harvard, Worcester, Massachusetts Bay Colony, British Colonial America","birth_lat":42.51667,"birth_long":-71.58333,"death_place_name":"Canaan, Somerset, Maine, United States","death_lat":44.7783,"death_long":-69.545,"era":"Early Republic","has_birth_point":true,"has_death_point":true},{"person_id":"P-0107","primary_name":"Martin Zíka","sex":"male","branch":"Zika","fs_id":"L2V1-YHK","birth_date":"7 November 1769","notes":"Imported from FamilySearch extract on 2026-05-26.","source_summary":"FamilySearch (FS PID: L2V1-YHK)","birth_place_id":"PL-0233","birth_year":1769,"birth_place_name":"Beneschau, Bohemia, Austria","birth_lat":49.666667,"birth_long":14.75,"era":"Early Republic","has_birth_point":true,"has_death_point":false},{"person_id":"P-0108","primary_name":"Barbora Michalíčková","sex":"female","fs_id":"GWCT-BFG","birth_date":"2 May 1776","death_date":"7 May 1863","notes":"Imported from FamilySearch extract on 2026-05-26.","source_summary":"FamilySearch (FS PID: GWCT-BFG)","birth_place_id":"PL-0233","death_place_id":"PL-1550","birth_year":1776,"death_year":1863,"birth_place_name":"Beneschau, Bohemia, Austria","birth_lat":49.666667,"birth_long":14.75,"death_place_name":"Vrazdovy Lhotice, Benešov, Czechia","death_lat":49.640172,"death_long":15.180023,"era":"Early Republic","has_birth_point":true,"has_death_point":true},{"person_id":"P-0109","primary_name":"František Říha","sex":"male","fs_id":"GWCY-7JL","birth_date":"9 January 1788","death_date":"23 December 1848","notes":"Imported from FamilySearch extract on 2026-05-26.","source_summary":"FamilySearch (FS PID: GWCY-7JL)","birth_place_id":"PL-0233","death_place_id":"PL-1550","birth_year":1788,"death_year":1848,"birth_place_name":"Beneschau, Bohemia, Austria","birth_lat":49.666667,"birth_long":14.75,"death_place_name":"Vrazdovy Lhotice, Benešov, Czechia","death_lat":49.640172,"death_long":15.180023,"era":"Early Republic","has_birth_point":true,"has_death_point":true},{"person_id":"P-0110","primary_name":"Pierre Pouliot","sex":"male","branch":"Pouliot","fs_id":"KZXQ-XCP","birth_date":"28 August 1775","death_date":"8 April 1845","notes":"Imported from FamilySearch extract on 2026-05-26.","source_summary":"FamilySearch (FS PID: KZXQ-XCP)","birth_place_id":"PL-1635","death_place_id":"PL-1635","birth_year":1775,"death_year":1845,"birth_place_name":"St-Laurent-de-l'Île-d'Orléans Cemetery, Saint-Laurent, L'Île-d'Orléans, Quebec, Canada","birth_lat":45.51385,"birth_long":-73.67387,"death_place_name":"St-Laurent-de-l'Île-d'Orléans Cemetery, Saint-Laurent, L'Île-d'Orléans, Quebec, Canada","death_lat":45.51385,"death_long":-73.67387,"era":"Early Republic","has_birth_point":true,"has_death_point":true},{"person_id":"P-0111","primary_name":"Therese Denis Lapierre","sex":"female","fs_id":"KCYF-LFN","birth_date":"22 June 1779","death_date":"20 November 1846","notes":"Imported from FamilySearch extract on 2026-05-26.","source_summary":"FamilySearch (FS PID: KCYF-LFN)","birth_place_id":"PL-0506","death_place_id":"PL-0506","birth_year":1779,"death_year":1846,"birth_place_name":"Saint-Laurent, L'Île-d'Orléans, Quebec, Canada","birth_lat":46.8664,"birth_long":-71.0116,"death_place_name":"Saint-Laurent, L'Île-d'Orléans, Quebec, Canada","death_lat":46.8664,"death_long":-71.0116,"era":"Early Republic","has_birth_point":true,"has_death_point":true},{"person_id":"P-0112","primary_name":"Michel Olivier Audet","sex":"male","fs_id":"MJ8T-X8V","birth_date":"12 March 1778","death_date":"14 November 1848","notes":"Imported from FamilySearch extract on 2026-05-26.","source_summary":"FamilySearch (FS PID: MJ8T-X8V)","birth_place_id":"PL-1000","death_place_id":"PL-1000","birth_year":1778,"death_year":1848,"birth_place_name":"Saint-Jean-Baptiste, Montmorency No. 2, Quebec, Canada","birth_lat":46.9219,"birth_long":-70.8892,"death_place_name":"Saint-Jean-Baptiste, Montmorency No. 2, Quebec, Canada","death_lat":46.9219,"death_long":-70.8892,"era":"Early Republic","has_birth_point":true,"has_death_point":true},{"person_id":"P-0113","primary_name":"Marie Louise Tremblay","sex":"female","fs_id":"LHJ9-SLF","birth_date":"24 December 1782","death_date":"7 August 1869","notes":"Imported from FamilySearch extract on 2026-05-26.","source_summary":"FamilySearch (FS PID: LHJ9-SLF)","birth_place_id":"PL-1765","death_place_id":"PL-1000","birth_year":1782,"death_year":1869,"birth_place_name":"Saint-Jean, Orléans, Lower Canada, British North America","birth_lat":46.9203,"birth_long":-70.89,"death_place_name":"Saint-Jean-Baptiste, Montmorency No. 2, Quebec, Canada","death_lat":46.9219,"death_long":-70.8892,"era":"Early Republic","has_birth_point":true,"has_death_point":true},{"person_id":"P-0114","primary_name":"Marie Zemanová","sex":"female","fs_id":"GWCY-M48","birth_date":"10 October 1797","death_date":"19 December 1853","notes":"Imported from FamilySearch extract on 2026-05-26.","source_summary":"FamilySearch (FS PID: GWCY-M48)","birth_place_id":"PL-1810","death_place_id":"PL-1550","birth_year":1797,"death_year":1853,"birth_place_name":"Wonschow, Ledeč, Bohemia, Austria","birth_lat":49.5782,"birth_long":15.1364,"death_place_name":"Vrazdovy Lhotice, Benešov, Czechia","death_lat":49.640172,"death_long":15.180023,"era":"Early Republic","has_birth_point":true,"has_death_point":true},{"person_id":"P-0115","primary_name":"Pietro Dini","sex":"male","branch":"Maternal Mariotti","fs_id":"P355-FRN","notes":"Imported from FamilySearch extract on 2026-05-26.","source_summary":"FamilySearch (FS PID: P355-FRN)","era":null,"has_birth_point":false,"has_death_point":false},{"person_id":"P-0116","primary_name":"Elisabetta Giovacchini","sex":"female","fs_id":"P35T-Q4G","notes":"Imported from FamilySearch extract on 2026-05-26.","source_summary":"FamilySearch (FS PID: P35T-Q4G)","era":null,"has_birth_point":false,"has_death_point":false},{"person_id":"P-0117","primary_name":"Pier Domenico Spadoni","sex":"male","branch":"Maternal Mariotti","fs_id":"GRLV-XZB","birth_date":"about 1774","death_date":"3 April 1864","notes":"Imported from FamilySearch extract on 2026-05-26.","source_summary":"FamilySearch (FS PID: GRLV-XZB)","death_place_id":"PL-0390","birth_year":1774,"death_year":1864,"death_place_name":"Ponte Buggianese, Pistoia, Tuscany, Italy","death_lat":43.841,"death_long":10.7476,"era":"Early Republic","has_birth_point":false,"has_death_point":true},{"person_id":"P-0118","primary_name":"Maria Angiola Ercolini","sex":"female","fs_id":"GRLV-YDR","birth_date":"about 1780","notes":"Imported from FamilySearch extract on 2026-05-26.","source_summary":"FamilySearch (FS PID: GRLV-YDR)","death_place_id":"PL-0390","birth_year":1780,"death_place_name":"Ponte Buggianese, Pistoia, Tuscany, Italy","death_lat":43.841,"death_long":10.7476,"era":"Early Republic","has_birth_point":false,"has_death_point":true},{"person_id":"P-0119","primary_name":"Annunziata Grossi","sex":"female","fs_id":"P99N-599","notes":"Imported from FamilySearch extract on 2026-05-26.","source_summary":"FamilySearch (FS PID: P99N-599)","era":null,"has_birth_point":false,"has_death_point":false},{"person_id":"P-0120","primary_name":"MARIA UMILTA' PORCIANI","sex":"female","branch":"Maternal Mariotti","fs_id":"GBF4-PH4","birth_date":"1787","death_date":"4 November 1854","notes":"Imported from FamilySearch extract on 2026-05-26.","source_summary":"FamilySearch (FS PID: GBF4-PH4)","birth_place_id":"PL-0178","death_place_id":"PL-0390","birth_year":1787,"death_year":1854,"birth_place_name":"Cintolese, Monsummano Terme, Pistoia, Tuscany, Italy","birth_lat":43.843651,"birth_long":10.827214,"death_place_name":"Ponte Buggianese, Pistoia, Tuscany, Italy","death_lat":43.841,"death_long":10.7476,"era":"Early Republic","has_birth_point":true,"has_death_point":true},{"person_id":"P-0121","primary_name":"Carlo Dini","sex":"male","branch":"Maternal Mariotti","fs_id":"P99N-2W1","notes":"Imported from FamilySearch extract on 2026-05-26.","source_summary":"FamilySearch (FS PID: P99N-2W1)","birth_place_id":"PL-0390","birth_place_name":"Ponte Buggianese, Pistoia, Tuscany, Italy","birth_lat":43.841,"birth_long":10.7476,"era":null,"has_birth_point":true,"has_death_point":false},{"person_id":"P-0122","primary_name":"ANGIOLO NICCOLAI","sex":"male","branch":"Maternal Mariotti","fs_id":"GBFH-79H","birth_date":"27 February 1780","death_date":"20 December 1862","notes":"Imported from FamilySearch extract on 2026-05-26.","source_summary":"FamilySearch (FS PID: GBFH-79H)","birth_place_id":"PL-2171","death_place_id":"PL-0390","birth_year":1780,"death_year":1862,"birth_place_name":"Montevettolini, Monsummano Terme, Pistoia, Tuscany, Italy","birth_lat":43.85776,"birth_long":10.84366,"death_place_name":"Ponte Buggianese, Pistoia, Tuscany, Italy","death_lat":43.841,"death_long":10.7476,"era":"Early Republic","has_birth_point":true,"has_death_point":true},{"person_id":"P-0123","primary_name":"Priscilla Foulk","sex":"female","fs_id":"K262-J62","birth_date":"3 March 1775","death_date":"3 March 1802","notes":"Imported from FamilySearch extract on 2026-05-26.","source_summary":"FamilySearch (FS PID: K262-J62)","birth_place_id":"PL-2218","death_place_id":"PL-2219","birth_year":1775,"death_year":1802,"birth_place_name":"New Castle, Delaware, British Colonial America","birth_lat":39.582,"birth_long":-75.652,"death_place_name":"Wilmington, New Castle, Delaware, United States","death_lat":39.7458,"death_long":-75.5469,"era":"Early Republic","has_birth_point":true,"has_death_point":true},{"person_id":"P-0124","primary_name":"Harman Talley","sex":"male","branch":"Paternal Reed","fs_id":"L7NJ-XMX","birth_date":"28 April 1775","death_date":"24 August 1858","notes":"Imported from FamilySearch extract on 2026-05-26.","source_summary":"FamilySearch (FS PID: L7NJ-XMX)","birth_place_id":"PL-2218","death_place_id":"PL-2268","birth_year":1775,"death_year":1858,"birth_place_name":"New Castle, Delaware, British Colonial America","birth_lat":39.582,"birth_long":-75.652,"death_place_name":"Piasa, Macoupin, Illinois, United States","death_lat":39.1158,"death_long":-90.1236,"era":"Early Republic","has_birth_point":true,"has_death_point":true},{"person_id":"P-0125","primary_name":"Sarah Brown","sex":"female","fs_id":"L8J2-MLN","birth_date":"1758","death_date":"July 1794","notes":"Imported from FamilySearch extract on 2026-05-26.","source_summary":"FamilySearch (FS PID: L8J2-MLN)","birth_place_id":"PL-2318","death_place_id":"PL-2319","birth_year":1758,"death_year":1794,"birth_place_name":"Frederick, Maryland, British Colonial America","birth_lat":39.467,"birth_long":-77.4,"death_place_name":"Washington, Upper Mifflin Township, Cumberland, Pennsylvania, United States","death_lat":40.2022,"death_long":-77.4783,"era":"Colonial Era","has_birth_point":true,"has_death_point":true},{"person_id":"P-0126","primary_name":"Ann Patton","sex":"female","fs_id":"KVJJ-2F9","birth_date":"about 1760","notes":"Imported from FamilySearch extract on 2026-05-26.","source_summary":"FamilySearch (FS PID: KVJJ-2F9)","birth_place_id":"PL-2371","birth_year":1760,"birth_place_name":"New Castle, New Castle, Delaware, United States","birth_lat":39.6619,"birth_long":-75.5667,"era":"Colonial Era","has_birth_point":true,"has_death_point":false},{"person_id":"P-0127","primary_name":"Richard R. Dickerson Sr.","sex":"male","fs_id":"L8J2-M2Y","birth_date":"1748","death_date":"1836","notes":"Imported from FamilySearch extract on 2026-05-26.","source_summary":"FamilySearch (FS PID: L8J2-M2Y)","birth_place_id":"PL-2424","death_place_id":"PL-2425","birth_year":1748,"death_year":1836,"birth_place_name":"Fort Hill, Upper Turkeyfoot Township, Somerset, Pennsylvania, United States","birth_lat":39.8303,"birth_long":-79.2728,"death_place_name":"Liberty, Guernsey, Ohio, United States","death_lat":40.1509,"death_long":-81.5728,"era":"Colonial Era","has_birth_point":true,"has_death_point":true},{"person_id":"P-0128","primary_name":"Simon Poulson lll","sex":"male","fs_id":"KVJJ-262","birth_date":"16 October 1752","death_date":"1 October 1801","notes":"Imported from FamilySearch extract on 2026-05-26.","source_summary":"FamilySearch (FS PID: KVJJ-262)","birth_place_id":"PL-2218","death_place_id":"PL-2480","birth_year":1752,"death_year":1801,"birth_place_name":"New Castle, Delaware, British Colonial America","birth_lat":39.582,"birth_long":-75.652,"death_place_name":"Mill Creek Hundred, New Castle, Delaware, United States","death_lat":39.7667,"death_long":-75.6833,"era":"Colonial Era","has_birth_point":true,"has_death_point":true},{"person_id":"P-0129","primary_name":"Absalom Willey","sex":"male","branch":"Paternal Reed","fs_id":"LTCY-1RM","birth_date":"6 May 1739","death_date":"19 December 1791","notes":"Imported from FamilySearch extract on 2026-05-26.","source_summary":"FamilySearch (FS PID: LTCY-1RM)","birth_place_id":"PL-2536","death_place_id":"PL-0097","birth_year":1739,"death_year":1791,"birth_place_name":"Nanticoke Hundred, Sussex, Delaware, British Colonial America","birth_lat":38.7083,"birth_long":-75.5083,"death_place_name":"Nanticoke Hundred, Sussex, Delaware, United States","death_lat":38.653084,"death_long":-75.434473,"era":"Colonial Era","has_birth_point":true,"has_death_point":true},{"person_id":"P-0130","primary_name":"Margaret Polk","sex":"female","fs_id":"GSMH-72F","birth_date":"14 November 1741","death_date":"3 January 1816","notes":"Imported from FamilySearch extract on 2026-05-26.","source_summary":"FamilySearch (FS PID: GSMH-72F)","birth_place_id":"PL-2593","death_place_id":"PL-2594","birth_year":1741,"death_year":1816,"birth_place_name":"Sussex, Delaware, British Colonial America","birth_lat":38.7,"birth_long":-75.4167,"death_place_name":"Morgantown, Monongalia, Virginia, United States","death_lat":39.62944,"death_long":-79.95611,"era":"Colonial Era","has_birth_point":true,"has_death_point":true},{"person_id":"P-0131","primary_name":"Deliverance Owen","sex":"female","fs_id":"2CND-ZJ7","birth_date":"13 August 1754","death_date":"1821","notes":"Imported from FamilySearch extract on 2026-05-26.","source_summary":"FamilySearch (FS PID: 2CND-ZJ7)","birth_place_id":"PL-2653","death_place_id":"PL-0638","birth_year":1754,"death_year":1821,"birth_place_name":"Rowley, Essex, Massachusetts Bay Colony, British Colonial America","birth_lat":42.71807,"birth_long":-70.878,"death_place_name":"Morgan, Ohio, United States","death_lat":39.616669,"death_long":-81.83333,"era":"Colonial Era","has_birth_point":true,"has_death_point":true},{"person_id":"P-0132","primary_name":"Benjamin Dye","sex":"male","branch":"Paternal Reed","fs_id":"GDZ6-V7D","birth_date":"1755","death_date":"2 April 1789","notes":"Imported from FamilySearch extract on 2026-05-26.","source_summary":"FamilySearch (FS PID: GDZ6-V7D)","birth_place_id":"PL-2713","death_place_id":"PL-2714","birth_year":1755,"death_year":1789,"birth_place_name":"Cranbury Township, Middlesex, New Jersey, United States","birth_lat":40.3125,"birth_long":-74.5333,"death_place_name":"Greene Township, Washington, Pennsylvania, United States","death_lat":39.82152,"death_long":-80.01579,"era":"Colonial Era","has_birth_point":true,"has_death_point":true},{"person_id":"P-0133","primary_name":"John Thomas Thurlow Jr","sex":"male","fs_id":"24C5-JCJ","birth_date":"26 September 1745","death_date":"22 September 1835","notes":"Imported from FamilySearch extract on 2026-05-26.","source_summary":"FamilySearch (FS PID: 24C5-JCJ)","birth_place_id":"PL-2776","death_place_id":"PL-2777","birth_year":1745,"death_year":1835,"birth_place_name":"Newbury, Essex, Massachusetts Bay Colony, British Colonial America","birth_lat":42.77917,"birth_long":-70.88333,"death_place_name":"Olive Township, Morgan, Ohio, United States","death_lat":39.7311,"death_long":-81.515,"era":"Colonial Era","has_birth_point":true,"has_death_point":true},{"person_id":"P-0134","primary_name":"Asher Allen","sex":"male","branch":"Paternal Reed","fs_id":"97RN-BFV","birth_date":"22 May 1756","death_date":"5 February 1840","notes":"Imported from FamilySearch extract on 2026-05-26.","source_summary":"FamilySearch (FS PID: 97RN-BFV)","birth_place_id":"PL-2841","death_place_id":"PL-2842","birth_year":1756,"death_year":1840,"birth_place_name":"Mansfield, Windham, Connecticut Colony, British Colonial America","birth_lat":41.78833,"birth_long":-72.22944,"death_place_name":"Washington, Ohio, United States","death_lat":39.50139,"death_long":-81.416668,"era":"Colonial Era","has_birth_point":true,"has_death_point":true},{"person_id":"P-0135","primary_name":"Elizabeth Lemley","sex":"female","branch":"Paternal Reed","fs_id":"M3G6-T7D","birth_date":"23 June 1756","death_date":"1 May 1792","notes":"Imported from FamilySearch extract on 2026-05-26.","source_summary":"FamilySearch (FS PID: M3G6-T7D)","birth_place_id":"PL-2908","death_place_id":"PL-2714","birth_year":1756,"death_year":1792,"birth_place_name":"Montgomery, Pennsylvania, United States","birth_lat":40.211,"birth_long":-75.368,"death_place_name":"Greene Township, Washington, Pennsylvania, United States","death_lat":39.82152,"death_long":-80.01579,"era":"Colonial Era","has_birth_point":true,"has_death_point":true},{"person_id":"P-0136","primary_name":"Lydia Hopkins","sex":"female","fs_id":"G8SF-YZH","birth_date":"16 April 1737","death_date":"5 March 1826","notes":"Imported from FamilySearch extract on 2026-05-26.","source_summary":"FamilySearch (FS PID: G8SF-YZH)","birth_place_id":"PL-2975","death_place_id":"PL-2976","birth_year":1737,"death_year":1826,"birth_place_name":"Billerica, Middlesex, Massachusetts, United States","birth_lat":42.559,"birth_long":-71.269,"death_place_name":"Stoddard, Cheshire, New Hampshire, United States","death_lat":43.079,"death_long":-72.1149,"era":"Colonial Era","has_birth_point":true,"has_death_point":true},{"person_id":"P-0137","primary_name":"Elizabeth Polly Palmer","sex":"female","fs_id":"2S2L-ZGM","birth_date":"14 November 1757","death_date":"23 July 1851","notes":"Imported from FamilySearch extract on 2026-05-26.","source_summary":"FamilySearch (FS PID: 2S2L-ZGM)","birth_place_id":"PL-2841","death_place_id":"PL-3045","birth_year":1757,"death_year":1851,"birth_place_name":"Mansfield, Windham, Connecticut Colony, British Colonial America","birth_lat":41.78833,"birth_long":-72.22944,"death_place_name":"Highland, Ohio, United States","death_lat":39.183329,"death_long":-83.616669,"era":"Colonial Era","has_birth_point":true,"has_death_point":true},{"person_id":"P-0138","primary_name":"Sherebiah Lambert Sr.","sex":"male","fs_id":"L7NQ-CKX","birth_date":"28 March 1728","death_date":"1 May 1833","notes":"Patriot era; married Lydia (Hopkins?).","source_summary":"FamilySearch (FS PID: L7NQ-CKX)","birth_place_id":"PL-3115","death_place_id":"PL-0667","birth_year":1728,"death_year":1833,"birth_place_name":"York, York, Maine, United States","birth_lat":43.154,"birth_long":-70.65,"death_place_name":"Canaan, Somerset, Maine, United States","death_lat":44.7783,"death_long":-69.545,"era":"Colonial Era","has_birth_point":true,"has_death_point":true},{"person_id":"P-0139","primary_name":"Mabel Pinney","sex":"female","fs_id":"L5ZR-LXX","birth_date":"30 September 1723","death_date":"1783","notes":"Imported from FamilySearch extract on 2026-05-26.","source_summary":"FamilySearch (FS PID: L5ZR-LXX)","birth_place_id":"PL-3186","birth_year":1723,"death_year":1783,"birth_place_name":"Windsor, Hartford, Connecticut Colony, British Colonial America","birth_lat":41.85352,"birth_long":-72.64641,"era":"Colonial Era","has_birth_point":true,"has_death_point":false},{"person_id":"P-0140","primary_name":"Abigail Whitney Rand","sex":"female","fs_id":"LHKW-2DG","birth_date":"14 November 1736","death_date":"1813","notes":"Imported from FamilySearch extract on 2026-05-26.","source_summary":"FamilySearch (FS PID: LHKW-2DG)","birth_place_id":"PL-1467","death_place_id":"PL-3258","birth_year":1736,"death_year":1813,"birth_place_name":"Harvard, Worcester, Massachusetts Bay Colony, British Colonial America","birth_lat":42.51667,"birth_long":-71.58333,"death_place_name":"Sangerville, Piscataquis, Maine, United States","death_lat":45.1654,"death_long":-69.355,"era":"Colonial Era","has_birth_point":true,"has_death_point":true},{"person_id":"P-0141","primary_name":"Edward Ebenezer Barnard","sex":"male","branch":"Paternal Reed","fs_id":"L5ZR-PVC","birth_date":"8 September 1710","death_date":"5 February 1783","notes":"Imported from FamilySearch extract on 2026-05-26.","source_summary":"FamilySearch (FS PID: L5ZR-PVC)","birth_place_id":"PL-3186","death_place_id":"PL-3331","birth_year":1710,"death_year":1783,"birth_place_name":"Windsor, Hartford, Connecticut Colony, British Colonial America","birth_lat":41.85352,"birth_long":-72.64641,"death_place_name":"Windsor, Hartford, Connecticut, United States","death_lat":41.85352,"death_long":-72.64641,"era":"Colonial Era","has_birth_point":true,"has_death_point":true},{"person_id":"P-0142","primary_name":"Deacon Francis Barnard","sex":"male","branch":"Paternal Reed","fs_id":"LCB7-QL6","birth_date":"9 September 1719","death_date":"22 February 1789","notes":"Imported from FamilySearch extract on 2026-05-26.","source_summary":"FamilySearch (FS PID: LCB7-QL6)","birth_place_id":"PL-3186","death_place_id":"PL-0109","birth_year":1719,"death_year":1789,"birth_place_name":"Windsor, Hartford, Connecticut Colony, British Colonial America","birth_lat":41.85352,"birth_long":-72.64641,"death_place_name":"Simsbury, Hartford, Connecticut, United States","death_lat":41.8759152,"death_long":-72.8012211,"era":"Colonial Era","has_birth_point":true,"has_death_point":true},{"person_id":"P-0143","primary_name":"Lucretia Carroll Pinney","sex":"female","fs_id":"LD9K-29K","birth_date":"17 January 1722","death_date":"26 October 1773","notes":"Imported from FamilySearch extract on 2026-05-26.","source_summary":"FamilySearch (FS PID: LD9K-29K)","birth_place_id":"PL-3186","death_place_id":"PL-3478","birth_year":1722,"death_year":1773,"birth_place_name":"Windsor, Hartford, Connecticut Colony, British Colonial America","birth_lat":41.85352,"birth_long":-72.64641,"death_place_name":"Wintonbury Parish, Windsor, Hartford, Connecticut Colony, British Colonial America","death_lat":41.8442,"death_long":-72.7419,"era":"Colonial Era","has_birth_point":true,"has_death_point":true},{"person_id":"P-0144","primary_name":"Jonathan Abel Oakes","sex":"male","fs_id":"LZP7-DSJ","birth_date":"21 August 1717","death_date":"2 December 1784","notes":"Imported from FamilySearch extract on 2026-05-26.","source_summary":"FamilySearch (FS PID: LZP7-DSJ)","birth_place_id":"PL-3553","death_place_id":"PL-0667","birth_year":1717,"death_year":1784,"birth_place_name":"Marlborough, Middlesex, Massachusetts Bay Colony, British Colonial America","birth_lat":42.345829,"birth_long":-71.552779,"death_place_name":"Canaan, Somerset, Maine, United States","death_lat":44.7783,"death_long":-69.545,"era":"Colonial Era","has_birth_point":true,"has_death_point":true},{"person_id":"P-0145","primary_name":"Jan Zíka","sex":"male","branch":"Zika","fs_id":"GWCT-J7B","birth_date":"24 May 1729","death_date":"3 August 1810","notes":"Imported from FamilySearch extract on 2026-05-26.","source_summary":"FamilySearch (FS PID: GWCT-J7B)","birth_place_id":"PL-1550","death_place_id":"PL-1550","birth_year":1729,"death_year":1810,"birth_place_name":"Vrazdovy Lhotice, Benešov, Czechia","birth_lat":49.640172,"birth_long":15.180023,"death_place_name":"Vrazdovy Lhotice, Benešov, Czechia","death_lat":49.640172,"death_long":15.180023,"era":"Colonial Era","has_birth_point":true,"has_death_point":true},{"person_id":"P-0146","primary_name":"Františka Doležalová","sex":"female","fs_id":"GWCT-1N1","birth_date":"about 1730","death_date":"29 November 1805","notes":"Imported from FamilySearch extract on 2026-05-26.","source_summary":"FamilySearch (FS PID: GWCT-1N1)","death_place_id":"PL-1550","birth_year":1730,"death_year":1805,"death_place_name":"Vrazdovy Lhotice, Benešov, Czechia","death_lat":49.640172,"death_long":15.180023,"era":"Colonial Era","has_birth_point":false,"has_death_point":true},{"person_id":"P-0147","primary_name":"Antonín Zeman","sex":"male","fs_id":"GPDL-R79","notes":"Imported from FamilySearch extract on 2026-05-26.","source_summary":"FamilySearch (FS PID: GPDL-R79)","era":null,"has_birth_point":false,"has_death_point":false},{"person_id":"P-0148","primary_name":"František Jan Michalíček","sex":"male","fs_id":"PH93-RMY","birth_date":"1745","death_date":"1800","notes":"Imported from FamilySearch extract on 2026-05-26.","source_summary":"FamilySearch (FS PID: PH93-RMY)","birth_place_id":"PL-3854","birth_year":1745,"death_year":1800,"birth_place_name":"Tomice, Benešov, Czechia","birth_lat":49.64507,"birth_long":15.15602,"era":"Colonial Era","has_birth_point":true,"has_death_point":false},{"person_id":"P-0149","primary_name":"Eva Zemanová","sex":"female","fs_id":"GT5S-14P","notes":"Imported from FamilySearch extract on 2026-05-26.","source_summary":"FamilySearch (FS PID: GT5S-14P)","era":null,"has_birth_point":false,"has_death_point":false},{"person_id":"P-0150","primary_name":"Václav Říha","sex":"male","fs_id":"GPDL-25D","notes":"Imported from FamilySearch extract on 2026-05-26.","source_summary":"FamilySearch (FS PID: GPDL-25D)","era":null,"has_birth_point":false,"has_death_point":false},{"person_id":"P-0151","primary_name":"Magdalena Dufková","sex":"female","fs_id":"PH93-PYK","birth_date":"1747","notes":"Imported from FamilySearch extract on 2026-05-26.","source_summary":"FamilySearch (FS PID: PH93-PYK)","birth_place_id":"PL-4083","birth_year":1747,"birth_place_name":"Košetice, Pelhřimov, Czechia","birth_lat":49.55791,"birth_long":15.1156,"era":"Colonial Era","has_birth_point":true,"has_death_point":false},{"person_id":"P-0152","primary_name":"Magdalena Říhová","sex":"female","fs_id":"GT5S-PGJ","notes":"Imported from FamilySearch extract on 2026-05-26.","source_summary":"FamilySearch (FS PID: GT5S-PGJ)","era":null,"has_birth_point":false,"has_death_point":false},{"person_id":"P-0153","primary_name":"Genevieve Godbout","sex":"female","fs_id":"LJYN-TJY","birth_date":"5 March 1753","death_date":"29 May 1810","notes":"Imported from FamilySearch extract on 2026-05-26.","source_summary":"FamilySearch (FS PID: LJYN-TJY)","birth_place_id":"PL-0506","death_place_id":"PL-0506","birth_year":1753,"death_year":1810,"birth_place_name":"Saint-Laurent, L'Île-d'Orléans, Quebec, Canada","birth_lat":46.8664,"birth_long":-71.0116,"death_place_name":"Saint-Laurent, L'Île-d'Orléans, Quebec, Canada","death_lat":46.8664,"death_long":-71.0116,"era":"Colonial Era","has_birth_point":true,"has_death_point":true},{"person_id":"P-0154","primary_name":"Pierre Pouliot","sex":"male","branch":"Pouliot","fs_id":"L4QP-2GB","birth_date":"23 May 1749","death_date":"8 July 1822","notes":"Imported from FamilySearch extract on 2026-05-26.","source_summary":"FamilySearch (FS PID: L4QP-2GB)","birth_place_id":"PL-0506","death_place_id":"PL-0506","birth_year":1749,"death_year":1822,"birth_place_name":"Saint-Laurent, L'Île-d'Orléans, Quebec, Canada","birth_lat":46.8664,"birth_long":-71.0116,"death_place_name":"Saint-Laurent, L'Île-d'Orléans, Quebec, Canada","death_lat":46.8664,"death_long":-71.0116,"era":"Colonial Era","has_birth_point":true,"has_death_point":true},{"person_id":"P-0155","primary_name":"Marie Louise St-Mars","sex":"female","fs_id":"L8PT-TR4","birth_date":"26 October 1739","death_date":"before 17 March 1792","notes":"Imported from FamilySearch extract on 2026-05-26.","source_summary":"FamilySearch (FS PID: L8PT-TR4)","birth_place_id":"PL-4392","death_place_id":"PL-0506","birth_year":1739,"death_year":1792,"birth_place_name":"Saint-Laurent, Montreal, Canada, New France","birth_lat":45.5141,"birth_long":-73.6746,"death_place_name":"Saint-Laurent, L'Île-d'Orléans, Quebec, Canada","death_lat":46.8664,"death_long":-71.0116,"era":"Colonial Era","has_birth_point":true,"has_death_point":true},{"person_id":"P-0156","primary_name":"Jacques Denis","sex":"male","fs_id":"KK1G-S62","birth_date":"18 June 1732","death_date":"6 May 1810","notes":"Imported from FamilySearch extract on 2026-05-26.","source_summary":"FamilySearch (FS PID: KK1G-S62)","birth_place_id":"PL-4471","death_place_id":"PL-4472","birth_year":1732,"death_year":1810,"birth_place_name":"Saint-Laurent, Saint-Laurent, Québec, Canada, New France","birth_lat":46.8664,"birth_long":-71.0116,"death_place_name":"Saint-Laurent, Orléans, Lower Canada, British North America","death_lat":46.8664,"death_long":-71.0116,"era":"Colonial Era","has_birth_point":true,"has_death_point":true},{"person_id":"P-0157","primary_name":"Marie Angelique Pépin dit Lachance","sex":"female","fs_id":"LRD1-TMD","birth_date":"9 November 1747","death_date":"21 March 1826","notes":"Imported from FamilySearch extract on 2026-05-26.","source_summary":"FamilySearch (FS PID: LRD1-TMD)","birth_place_id":"PL-4553","death_place_id":"PL-1000","birth_year":1747,"death_year":1826,"birth_place_name":"Saint-Jean, Trois-Rivières, Canada, New France","birth_lat":46.5564,"birth_long":-72.116,"death_place_name":"Saint-Jean-Baptiste, Montmorency No. 2, Quebec, Canada","death_lat":46.9219,"death_long":-70.8892,"era":"Colonial Era","has_birth_point":true,"has_death_point":true},{"person_id":"P-0158","primary_name":"Guillaume Audet","sex":"male","fs_id":"LRQ4-GD9","birth_date":"8 March 1742","death_date":"18 May 1805","notes":"Imported from FamilySearch extract on 2026-05-26.","source_summary":"FamilySearch (FS PID: LRQ4-GD9)","birth_place_id":"PL-4635","death_place_id":"PL-4636","birth_year":1742,"death_year":1805,"birth_place_name":"Saint-Jean-Baptiste, L'Île-d'Orléans, Quebec, Canada","birth_lat":46.9219,"birth_long":-70.8892,"death_place_name":"Saint-Laurent, Québec, Canada, New France","death_lat":46.9355,"death_long":-70.9547,"era":"Colonial Era","has_birth_point":true,"has_death_point":true},{"person_id":"P-0159","primary_name":"Jacques Tremblay","sex":"male","fs_id":"KLLJ-SJR","birth_date":"9 November 1744","death_date":"20 January 1810","notes":"Imported from FamilySearch extract on 2026-05-26.","source_summary":"FamilySearch (FS PID: KLLJ-SJR)","birth_place_id":"PL-4720","death_place_id":"PL-4635","birth_year":1744,"death_year":1810,"birth_place_name":"Saint-Pierre, Saint-Laurent, Québec, Canada, New France","birth_lat":46.8885,"birth_long":-71.0751,"death_place_name":"Saint-Jean-Baptiste, L'Île-d'Orléans, Quebec, Canada","death_lat":46.9219,"death_long":-70.8892,"era":"Colonial Era","has_birth_point":true,"has_death_point":true},{"person_id":"P-0160","primary_name":"Marie Angelique Delage","sex":"female","fs_id":"KN1W-474","birth_date":"23 October 1738","death_date":"16 June 1810","notes":"Imported from FamilySearch extract on 2026-05-26.","source_summary":"FamilySearch (FS PID: KN1W-474)","birth_place_id":"PL-4805","death_place_id":"PL-4805","birth_year":1738,"death_year":1810,"birth_place_name":"Île d'Orléans, Montmorency No. 2, Quebec, Canada","birth_lat":46.9322,"birth_long":-70.9293,"death_place_name":"Île d'Orléans, Montmorency No. 2, Quebec, Canada","death_lat":46.9322,"death_long":-70.9293,"era":"Colonial Era","has_birth_point":true,"has_death_point":true},{"person_id":"P-0161","primary_name":"Giovan Pietro Spadoni","sex":"male","branch":"Maternal Mariotti","fs_id":"GRL2-KCR","birth_date":"2 April 1725","notes":"Imported from FamilySearch extract on 2026-05-26.","source_summary":"FamilySearch (FS PID: GRL2-KCR)","birth_place_id":"PL-0390","death_place_id":"PL-0390","birth_year":1725,"birth_place_name":"Ponte Buggianese, Pistoia, Tuscany, Italy","birth_lat":43.841,"birth_long":10.7476,"death_place_name":"Ponte Buggianese, Pistoia, Tuscany, Italy","death_lat":43.841,"death_long":10.7476,"era":"Colonial Era","has_birth_point":true,"has_death_point":true},{"person_id":"P-0162","primary_name":"Maria Pasqua Baldi","sex":"female","fs_id":"GRLP-TVD","birth_date":"about 1730","notes":"Imported from FamilySearch extract on 2026-05-26.","source_summary":"FamilySearch (FS PID: GRLP-TVD)","birth_place_id":"PL-0390","death_place_id":"PL-0390","birth_year":1730,"birth_place_name":"Ponte Buggianese, Pistoia, Tuscany, Italy","birth_lat":43.841,"birth_long":10.7476,"death_place_name":"Ponte Buggianese, Pistoia, Tuscany, Italy","death_lat":43.841,"death_long":10.7476,"era":"Colonial Era","has_birth_point":true,"has_death_point":true},{"person_id":"P-0163","primary_name":"PIER DOMENICO NICCOLAI","sex":"male","branch":"Maternal Mariotti","fs_id":"GBF4-TKM","birth_date":"12 March 1761","death_date":"23 December 1846","notes":"Imported from FamilySearch extract on 2026-05-26.","source_summary":"FamilySearch (FS PID: GBF4-TKM)","birth_place_id":"PL-2171","death_place_id":"PL-0178","birth_year":1761,"death_year":1846,"birth_place_name":"Montevettolini, Monsummano Terme, Pistoia, Tuscany, Italy","birth_lat":43.85776,"birth_long":10.84366,"death_place_name":"Cintolese, Monsummano Terme, Pistoia, Tuscany, Italy","death_lat":43.843651,"death_long":10.827214,"era":"Colonial Era","has_birth_point":true,"has_death_point":true},{"person_id":"P-0164","primary_name":"UMILTA' GIACOMELLI","sex":"female","fs_id":"GBFH-HZV","birth_date":"1763","death_date":"29 December 1823","notes":"Imported from FamilySearch extract on 2026-05-26.","source_summary":"FamilySearch (FS PID: GBFH-HZV)","birth_place_id":"PL-2171","death_place_id":"PL-0178","birth_year":1763,"death_year":1823,"birth_place_name":"Montevettolini, Monsummano Terme, Pistoia, Tuscany, Italy","birth_lat":43.85776,"birth_long":10.84366,"death_place_name":"Cintolese, Monsummano Terme, Pistoia, Tuscany, Italy","death_lat":43.843651,"death_long":10.827214,"era":"Early Republic","has_birth_point":true,"has_death_point":true},{"person_id":"P-0165","primary_name":"GIUSEPPE PORCIANI","sex":"male","branch":"Maternal Mariotti","fs_id":"PM4B-PBP","notes":"Imported from FamilySearch extract on 2026-05-26.","source_summary":"FamilySearch (FS PID: PM4B-PBP)","birth_place_id":"PL-5231","birth_place_name":"Monsummano Terme, Pistoia, Tuscany, Italy","birth_lat":43.8715,"birth_long":10.8145,"era":null,"has_birth_point":true,"has_death_point":false},{"person_id":"P-0166","primary_name":"CATERINA PARLANTI","sex":"female","fs_id":"PM4B-ZZR","notes":"Imported from FamilySearch extract on 2026-05-26.","source_summary":"FamilySearch (FS PID: PM4B-ZZR)","birth_place_id":"PL-5231","birth_place_name":"Monsummano Terme, Pistoia, Tuscany, Italy","birth_lat":43.8715,"birth_long":10.8145,"era":null,"has_birth_point":true,"has_death_point":false}]}